{
"type": "FeatureCollection",
"name": "Sig Locations",
"crs": { "type": "name", "properties": { "name": "urn:ogc:def:crs:OGC:1.3:CRS84" } },
"features": [
{ "type": "Feature", "properties": { "Name": "Waterrock Knob", "Type": "PNF", "Latitude": 35.4643, "Longitude": -83.1376 }, "geometry": { "type": "Point", "coordinates": [ -83.1376, 35.4643 ] } },
{ "type": "Feature", "properties": { "Name": "Black Balsam", "Type": "PNF", "Latitude": 35.3207, "Longitude": -82.8762 }, "geometry": { "type": "Point", "coordinates": [ -82.8762, 35.3207 ] } },
{ "type": "Feature", "properties": { "Name": "Graveyard Fields", "Type": "PNF", "Latitude": 35.32147, "Longitude": -82.84949 }, "geometry": { "type": "Point", "coordinates": [ -82.84949, 35.32147 ] } },
{ "type": "Feature", "properties": { "Name": "Frying Pan Tower", "Type": "PNF", "Latitude": 35.3934, "Longitude": -82.7746 }, "geometry": { "type": "Point", "coordinates": [ -82.7746, 35.3934 ] } },
{ "type": "Feature", "properties": { "Name": "Mt. Pisgah", "Type": "PNF", "Latitude": 35.4259, "Longitude": -82.7568 }, "geometry": { "type": "Point", "coordinates": [ -82.7568, 35.4259 ] } },
{ "type": "Feature", "properties": { "Name": "Folk Art Center", "Type": "Null", "Latitude": 35.5929, "Longitude": -82.481 }, "geometry": { "type": "Point", "coordinates": [ -82.481, 35.5929 ] } },
{ "type": "Feature", "properties": { "Name": "Lane Pinnacle", "Type": "PNF", "Latitude": 35.68122, "Longitude": -82.42179 }, "geometry": { "type": "Point", "coordinates": [ -82.42179, 35.68122 ] } },
{ "type": "Feature", "properties": { "Name": "Craggy Gardens", "Type": "PNF", "Latitude": 35.6959, "Longitude": -82.379 }, "geometry": { "type": "Point", "coordinates": [ -82.379, 35.6959 ] } },
{ "type": "Feature", "properties": { "Name": "Mt. Mitchell", "Type": "State", "Latitude": 35.7728, "Longitude": -82.2634 }, "geometry": { "type": "Point", "coordinates": [ -82.2634, 35.7728 ] } },
{ "type": "Feature", "properties": { "Name": "Crabtree Falls", "Type": "PNF", "Latitude": 35.8568, "Longitude": -82.136 }, "geometry": { "type": "Point", "coordinates": [ -82.136, 35.8568 ] } },
{ "type": "Feature", "properties": { "Name": "Linn Cove Viaduct", "Type": "PNF", "Latitude": 36.095, "Longitude": -81.8125 }, "geometry": { "type": "Point", "coordinates": [ -81.8125, 36.095 ] } },
{ "type": "Feature", "properties": { "Name": "Julian Price Memorial Park", "Type": "PNF", "Latitude": 36.1368, "Longitude": -81.7379 }, "geometry": { "type": "Point", "coordinates": [ -81.7379, 36.1368 ] } }
]
}
